[
  {
    "Hotel_Address": "1 15 Templeton Place Earl s Court Kensington and Chelsea London SW5 9NB United Kingdom",
    "Average_Score": 8.5,
    "Hotel_Name": "K K Hotel George",
    "Total_Number_of_Reviews": 1831,
    "lat": 51.4918878,
    "lng": -0.1949706,
    "Cat1_rt": 7,
    "Cat2_rt": 8,
    "Cat3_rt": 9,
    "Cat4_rt": 7,
    "Cat5_rt": 8,
    "Cat6_rt": 9,
    "Cat7_rt": 7,
    "Cat8_rt": 8,
    "Cat9_rt": 9,
    "Cat10_rt": 7
  },
  {
    "Hotel_Address": "s Gravesandestraat 55 Oost 1092 AA Amsterdam Netherlands",
    "Average_Score": 7.7,
    "Hotel_Name": "Hotel Arena",
    "Total_Number_of_Reviews": 1403,
    "lat": 52.3605759,
    "lng": 4.9159683,
    "Cat1_rt": 3,
    "Cat2_rt": 0,
    "Cat3_rt": 4,
    "Cat4_rt": 9,
    "Cat5_rt": 3,
    "Cat6_rt": 10,
    "Cat7_rt": 8,
    "Cat8_rt": 9,
    "Cat9_rt": 0,
    "Cat10_rt": 0
  },
  {
    "Hotel_Address": "1 2 Serjeant s Inn Fleet Street City of London London EC4Y 1LL United Kingdom",
    "Average_Score": 9.2,
    "Hotel_Name": "Apex Temple Court Hotel",
    "Total_Number_of_Reviews": 2619,
    "lat": 51.5137335,
    "lng": -0.1087512,
    "Cat1_rt": 9,
    "Cat2_rt": 8,
    "Cat3_rt": 7,
    "Cat4_rt": 6,
    "Cat5_rt": 5,
    "Cat6_rt": 9,
    "Cat7_rt": 8,
    "Cat8_rt": 7,
    "Cat9_rt": 10,
    "Cat10_rt": 4
  },
  {
    "Hotel_Address": "1 3 Queens Garden Westminster Borough London W2 3BA United Kingdom",
    "Average_Score": 7.7,
    "Hotel_Name": "The Park Grand London Paddington",
    "Total_Number_of_Reviews": 4380,
    "lat": 51.5142184,
    "lng": -0.1809032,
    "Cat1_rt": 1,
    "Cat2_rt": 3,
    "Cat3_rt": 0,
    "Cat4_rt": 5,
    "Cat5_rt": 7,
    "Cat6_rt": 8,
    "Cat7_rt": 9,
    "Cat8_rt": 4,
    "Cat9_rt": 9,
    "Cat10_rt": 10
  },
  {
    "Hotel_Address": "1 8 Russell Square Camden London WC1B 5BE United Kingdom",
    "Average_Score": 8,
    "Hotel_Name": "The Principal London",
    "Total_Number_of_Reviews": 3150,
    "lat": 51.5226217,
    "lng": -0.1251602,
    "Cat1_rt": 2,
    "Cat2_rt": 4,
    "Cat3_rt": 0,
    "Cat4_rt": 5,
    "Cat5_rt": 7,
    "Cat6_rt": 8,
    "Cat7_rt": 9,
    "Cat8_rt": 4,
    "Cat9_rt": 9,
    "Cat10_rt": 10
  }
]